,Latitude,Longitude,Temperature,Max Temp,Humidity,City,Wind Speed,Cloudiness
0,9.0167,37.45,51.08,51.08,99,Gēdo,2.15,94
0,69.4865,88.3972,65.21,65.21,47,Talnakh,1.23,99
0,55.7435,-97.8558,66.36,66.36,59,Thompson,2.3,20
0,-46.6,168.3333,50.81,50.81,74,Bluff,10.69,99
0,-53.15,-70.9167,37.51,37.51,87,Punta Arenas,10.36,40
0,65.6145,-37.6368,35.8,35.8,64,Tasiilaq,4.45,100
0,-33.5906,26.891,55.45,55.45,63,Port Alfred,24.38,96
0,65.282,-126.8329,78.84,78.84,50,Norman Wells,8.05,75
0,-0.9492,100.3543,80.65,80.65,69,Padang,3.89,94
0,-23.1203,-134.9692,73.74,73.74,77,Rikitea,17.47,0
0,17.0151,54.0924,74.68,74.68,97,Salalah,4.85,100
0,41.3712,-73.414,64.58,70.65,74,Bethel,3.65,40
0,64.3833,-173.3,57.31,57.31,58,Provideniya,8.95,0
0,27.9769,-114.0611,72.81,72.81,78,Guerrero Negro,16.64,1
0,10.6667,122.95,83.7,83.7,76,Bacolod City,12.88,96
0,-21.3585,55.7679,64.96,66.22,74,Saint-Philippe,11.68,35
0,39.6957,113.6871,76.32,76.32,45,Yong’an,13.02,22
0,-20.0064,57.6608,68.38,68.4,77,Grand Gaube,7.0,85
0,43.0258,25.1136,66.15,66.15,85,Sevlievo,3.67,99
0,-16.4833,-151.75,78.76,78.76,73,Faanui,13.24,12
0,48.6499,-53.1147,64.02,64.02,99,Bonavista,11.74,100
0,-34.5322,20.0403,41.38,41.38,75,Bredasdorp,4.0,16
0,70.4692,-68.5914,39.43,39.43,93,Clyde River,6.91,0
0,-34.4187,19.2345,39.79,39.79,68,Hermanus,8.39,8
0,-24.8667,113.6333,74.32,74.32,58,Carnarvon,13.09,73
0,40.2833,97.2,79.81,79.81,19,Yumen,10.74,0
0,24.0934,32.907,81.7,81.7,34,Aswān,11.5,0
0,-22.116,14.2845,51.3,51.3,91,Henties Bay,4.97,11
0,17.4833,106.6,90.54,90.54,57,Kwang Binh,1.39,94
0,42.6001,-73.9662,62.65,67.3,66,Albany,2.17,50
0,41.7597,86.1469,88.2,88.2,23,Korla,3.31,54
0,7.1344,-3.2047,70.14,70.14,99,Agnibilékrou,4.5,100
0,47.6666,-52.7314,67.28,70.39,96,Torbay,6.91,100
0,70.3705,31.1107,46.38,46.38,76,Vardø,10.36,76
0,50.6789,156.125,57.85,57.85,97,Severo-Kuril'sk,23.02,100
0,33.9167,134.65,89.38,89.38,70,Anan,7.74,68
0,62.0025,132.4325,72.21,72.21,47,Churapcha,9.35,99
0,38.421,-121.4238,88.39,95.14,22,Laguna,10.16,0
0,47.9077,106.8832,60.93,60.93,72,Ulaanbaatar,2.24,20
0,-54.8,-68.3,35.26,35.26,87,Ushuaia,4.61,75
0,59.7035,30.7861,60.64,62.8,85,Nikolskoye,3.56,6
0,78.2186,15.6401,39.49,39.49,95,Longyearbyen,4.5,100
0,-33.9258,18.4232,42.39,46.11,84,Cape Town,1.14,0
0,58.3631,82.8265,46.09,46.09,96,Togur,18.88,100
0,18.2164,42.5053,62.85,64.22,88,Abhā,0.0,0
0,-3.8004,102.2655,83.01,83.01,70,Bengkulu,4.21,88
0,-9.6567,120.2641,85.89,85.89,52,Waingapu,17.78,24
0,36.6177,-121.9166,58.86,64.54,88,Pacific Grove,12.66,75
0,42.2506,-75.833,66.7,70.16,64,Broome,2.46,80
0,31.61,34.7642,69.55,75.88,100,Kiryat Gat,1.81,0
0,26.1247,127.6694,89.62,89.62,70,Itoman,14.97,40
0,56.45,138.1667,56.19,56.19,87,Ayan,5.97,54
0,60.9167,-46.05,45.9,45.9,94,Narsaq,1.07,70
0,36.6006,114.4678,91.47,91.47,57,Handan,4.05,100
0,-28.0,153.4333,68.13,71.24,57,Gold Coast,12.66,0
0,-21.2078,-159.775,69.85,69.85,83,Avarua,5.75,75
0,40.5982,-124.1573,61.68,62.92,86,Fortuna,10.36,100
0,5.6667,15.9667,66.18,66.18,97,Baoro,5.08,100
0,41.1231,80.2644,85.1,85.1,31,Aksu,2.17,89
0,58.6147,5.6457,68.38,69.85,77,Varhaug,17.0,100
0,41.1875,61.4036,83.12,83.12,20,Gazojak,10.11,0
0,-6.0911,-35.2086,73.78,73.78,86,Nísia Floresta,8.32,5
0,46.4154,3.9054,58.44,58.68,94,Saint-François,3.44,75
0,-34.5833,150.8552,63.45,64.18,50,Flinders,8.99,98
0,-2.99,-65.1083,72.57,72.57,94,Uarini,2.66,14
0,44.0787,-80.2041,60.96,64.85,83,Shelburne,2.46,93
0,57.0531,-135.33,57.09,57.09,97,Sitka,6.71,100
0,49.9565,82.6119,64.36,64.36,68,Oskemen,2.24,0
0,55.3751,13.1569,66.36,66.94,92,Trelleborg,13.24,98
0,-9.8,-139.0333,77.72,77.72,68,Atuona,20.15,0
0,-46.1927,168.8643,50.49,50.49,64,Mataura,4.59,100
0,0.5333,72.9333,83.37,83.37,73,Thinadhoo,11.61,40
0,-15.9803,-71.4606,28.53,28.53,36,Pucara,3.22,92
0,57.79,-152.4072,53.11,53.11,94,Saint Paul Harbor,8.05,100
0,-42.8794,147.3294,53.22,54.27,95,Hobart,12.66,75
0,12.5579,-12.1743,71.96,71.96,97,Kédougou,4.36,95
0,53.6039,91.3903,66.85,69.69,43,Belyy Yar,17.9,40
0,28.3333,-105.4,82.08,82.08,40,Jiménez,2.59,49
0,32.6667,-17.1,70.43,72.01,76,Ponta do Sol,1.48,0
0,7.7669,-72.225,71.78,71.78,99,San Cristobal,3.02,99
0,-8.9266,125.4092,73.6,73.6,41,Airai,5.37,57
0,-35.3333,-72.4167,47.7,47.7,72,Constitución,7.85,61
0,14.9167,78.0167,81.16,81.16,63,Tadpatri,17.94,100
0,39.05,-27.9833,73.83,73.83,82,Lagoa,12.06,2
0,66.53,66.6019,51.19,51.19,61,Salekhard,11.92,15
0,-0.6,73.0833,82.9,82.9,73,Hithadhoo,9.84,43
0,-33.8667,121.9,61.57,61.57,57,Esperance,14.0,0
0,50.2001,-66.3821,60.22,60.8,94,Sept-Îles,2.3,75
0,22.0752,-159.319,81.27,81.48,72,Kapaa,5.99,16
0,-33.918,25.5701,48.4,50.09,90,Port Elizabeth,11.5,20
0,49.1667,-101.8009,73.38,73.38,75,Carnduff,16.82,58
0,25.0,-107.5,82.11,83.61,85,Sinaloa,1.01,100
0,77.484,-69.3632,41.29,41.29,87,Qaanaaq,7.85,98
0,-8.7676,160.7034,84.61,84.61,64,Auki,0.54,57
0,39.8885,4.2658,79.36,79.36,94,Mahon,4.61,20
0,-20.7333,139.5,73.17,73.17,15,Mount Isa,9.22,6
0,5.3998,26.4869,64.99,64.99,98,Obo,0.72,100
0,3.0707,172.7902,81.97,81.97,76,Butaritari,13.27,31
0,9.4942,50.8122,77.16,77.16,76,Bandarbeyla,24.49,100
0,32.0633,12.5286,81.39,81.39,26,Yafran,8.5,0
0,28.419,30.7792,76.48,76.48,64,Maţāy,9.51,0
0,-37.6167,-73.65,44.74,44.74,78,Lebu,10.0,31
0,50.2289,-99.4664,75.6,75.6,83,Neepawa,4.74,69
0,-45.5752,-72.0662,35.55,35.55,87,Coyhaique,8.05,100
0,49.1447,56.4872,75.67,75.67,30,Shubarkuduk,21.99,0
0,-33.65,115.3333,61.99,61.99,77,Busselton,18.72,77
0,71.2906,-156.7887,37.42,37.42,87,Barrow,12.66,100
0,53.8879,45.7419,58.75,58.75,63,Sura,6.08,100
0,-24.7911,-50.0119,55.74,55.74,67,Castro,4.54,0
0,-0.95,-80.7333,73.18,73.18,78,Manta,9.22,40
0,19.7297,-155.09,79.09,82.27,73,Hilo,1.01,92
0,-38.2667,141.9667,55.15,55.15,74,Codrington,19.89,68
0,21.4612,-71.1419,82.35,82.35,74,Cockburn Town,14.25,7
0,58.8053,-122.7002,69.39,69.39,83,Fort Nelson,3.44,75
0,50.1167,139.15,67.77,67.77,73,Vysokogornyy,2.51,59
0,-25.1667,45.05,64.76,64.76,60,Beloha,7.0,34
0,-33.5907,22.2014,39.72,39.72,85,Oudtshoorn,1.79,6
0,5.8933,95.3214,82.9,82.9,71,Sabang,8.7,65
0,46.4333,21.45,64.24,64.45,82,Şimand,5.48,60
0,58.1286,68.5944,53.38,53.38,59,Abalak,8.79,5
0,36.6167,101.7667,59.54,59.54,80,Xining,2.3,100
0,7.1197,121.9106,81.73,81.73,65,Limpapa,4.21,97
0,-15.5333,167.1667,78.44,78.44,85,Luganville,11.27,97
0,47.8667,88.1167,73.53,73.53,33,Altay,5.57,0
0,4.375,-7.7169,73.92,73.92,88,Harper,12.06,100
0,9.8017,-74.393,74.89,74.89,94,Nueva Granada,6.06,99
0,39.447,-86.1758,70.63,72.9,96,Bud,4.59,75
0,17.55,80.65,75.92,75.92,93,Chātakonda,3.67,100
0,1.7986,-78.8156,77.2,77.2,84,Tumaco,10.38,100
0,-10.4544,161.9205,83.53,83.53,70,Kirakira,7.45,76
0,5.3833,-52.95,77.9,77.9,81,Sinnamary,7.52,86
0,28.017,-97.5169,77.05,80.44,81,San Patricio,13.11,100
0,-33.0117,17.9442,41.05,41.05,75,Saldanha,5.48,4
0,69.5763,20.2189,41.0,41.0,73,Lyngseidet,3.38,99
0,46.3395,42.2762,78.91,78.91,37,Yashalta,11.79,55
0,32.5741,71.5264,92.71,92.71,52,Mianwali,6.46,47
0,37.4636,-122.4286,62.73,74.53,82,Half Moon Bay,11.5,100
0,57.2888,54.9728,58.12,58.12,65,Chastyye,3.44,23
0,41.1239,-100.7654,79.86,81.12,72,North Platte,15.99,75
0,22.2855,114.1577,89.08,91.33,77,Hong Kong,4.0,94
0,-5.6667,132.75,79.59,79.59,76,Tual,24.54,97
0,-4.8828,-66.8958,74.3,74.3,87,Carauari,2.44,2
0,-29.9533,-71.3436,53.33,53.33,93,Coquimbo,3.44,40
0,10.3744,10.7288,71.06,71.06,96,Bara,9.37,100
0,0.4919,35.743,53.28,53.28,90,Kabarnet,3.04,74
0,11.2833,-15.8333,78.84,78.84,82,Bubaque,16.17,99
0,-6.1219,141.2906,84.04,84.04,71,Kiunga,3.56,98
0,26.75,95.1,74.75,74.75,94,Mon,1.45,99
0,-21.2,-175.2,73.56,73.56,83,Vaini,14.97,75
0,43.4439,-3.4576,67.98,69.08,79,Santoña,6.46,69
0,-46.1333,167.6833,52.02,52.02,63,Tuatapere,4.29,100
0,17.65,83.2667,82.72,82.72,78,Yārāda,14.97,100
0,52.7182,50.0322,60.15,60.15,58,Krasnoarmeyskoye,9.66,59
0,42.097,-79.2353,64.8,67.64,65,Jamestown,5.75,0
0,66.9395,-53.6735,45.5,45.5,91,Sisimiut,8.39,100
0,25.5198,90.2201,81.27,81.27,74,Tura,5.44,72
0,-8.7597,-35.1047,73.35,73.35,79,Tamandaré,8.57,9
0,38.5167,-28.7,75.29,75.29,87,Ribeira Grande,7.65,11
0,62.456,-114.3525,77.52,77.52,36,Yellowknife,6.91,20
0,-41.4122,175.5153,50.52,50.52,73,Waipawa,3.71,100
0,60.1545,-1.1494,57.2,57.2,96,Lerwick,1.39,100
0,63.4427,-20.2734,46.31,46.31,72,Vestmannaeyjar,19.89,1
0,43.6475,111.9767,71.22,71.22,46,Erenhot,13.67,0
0,37.8694,112.5603,82.26,82.26,61,Taiyuan,4.47,0
0,14.0667,-87.4667,69.4,69.4,93,Lepaterique,3.38,99
0,-35.7167,150.1833,61.11,61.11,40,Batemans Bay,13.42,89
0,72.7868,-56.1549,42.17,42.17,82,Upernavik,7.27,100
0,22.8909,-109.9124,85.39,85.6,77,Cabo San Lucas,7.23,78
0,22.6667,106.25,87.67,87.67,68,Cao Bang,3.11,66
0,-20.4081,57.7,68.29,68.29,83,Mahébourg,17.27,75
0,46.4856,135.8833,73.96,73.96,52,Vostok,3.02,63
0,-2.2717,40.902,73.53,73.53,87,Lamu,11.32,39
0,-22.9661,-42.0278,68.95,68.95,79,Arraial do Cabo,27.09,4
0,-23.7,133.8833,72.95,72.95,15,Alice Springs,12.66,0
0,66.1451,-65.7125,42.08,42.08,93,Pangnirtung,3.24,100
0,52.6333,29.7333,66.27,66.27,81,Forsytheganj,9.55,100
0,-4.5772,-81.2719,65.32,65.32,85,Talara,17.87,5
0,55.9634,97.8235,61.47,61.47,62,Biryusinsk,9.69,52
0,50.1849,27.5363,65.48,65.48,79,Poninka,8.95,81
0,-0.9131,122.8766,80.78,80.78,72,Biak,9.46,100
0,-17.7333,-149.15,77.49,77.49,80,Tautira,12.46,37
0,-33.0153,27.9116,54.3,54.3,65,East London,26.62,75
0,59.758,18.705,67.01,67.01,96,Norrtälje,4.63,14
0,66.3167,-179.1667,41.27,41.27,91,Egvekinot,2.51,100
0,-23.7167,44.3833,62.62,62.62,70,Betioky,4.76,8
0,70.6333,147.9167,57.16,57.16,35,Chokurdakh,9.37,7
0,-15.1961,12.1522,59.5,59.5,87,Mossamedes,3.94,2
0,-0.8667,134.0833,83.91,83.91,67,Manokwari,11.88,95
0,64.2539,-15.2082,46.11,46.11,69,Hofn,9.8,22
0,62.0989,126.6992,55.47,55.47,97,Berdigestyakh,6.87,100
0,-46.2817,169.8464,50.92,50.92,67,Kaitangata,8.03,98
0,-7.6142,-72.8958,73.99,73.99,75,Mâncio Lima,3.02,23
0,16.1525,36.2032,79.83,79.83,73,Wagar,15.68,95
0,5.5577,95.3222,85.01,85.01,65,Banda Aceh,5.99,99
0,-37.0167,175.85,55.44,55.44,72,Tairua,3.09,100
0,65.5833,-171.0,41.76,41.76,73,Lavrentiya,5.64,41
0,69.7008,170.3133,33.96,33.96,85,Pevek,9.53,87
0,63.7506,-68.5145,43.7,44.33,81,Iqaluit,15.01,75
0,13.6017,26.6876,75.88,75.88,71,Umm Kaddadah,9.98,100
0,-20.5167,57.5167,68.38,68.38,83,Souillac,17.27,75
0,73.5069,80.5464,44.02,44.02,92,Dikson,6.38,100
0,-41.8697,-73.8203,43.34,43.34,78,Ancud,15.95,17
0,5.6667,73.0,80.46,80.46,80,Ugoofaaru,7.54,100
0,44.0167,87.3167,83.19,83.19,30,Changji,4.47,0
0,-30.9828,-54.6731,62.29,62.29,83,Dom Pedrito,11.45,15
0,29.9737,32.5263,73.31,73.31,77,Suez,6.8,0
0,-26.0736,-53.7253,61.52,61.52,73,Santo Antônio do Sudoeste,5.01,23
0,21.1167,70.1167,80.28,80.28,86,Māngrol,18.81,100
0,-34.0033,24.7314,47.88,47.88,72,Kruisfontein,7.2,68
0,56.555,76.6271,54.05,54.05,72,Kyshtovka,14.14,42
0,18.217,-63.0578,82.26,84.81,77,The Valley,5.77,12
0,-37.8333,140.7667,49.91,49.91,93,Mount Gambier,18.41,75
0,4.9158,29.4742,65.43,65.43,98,Maridi,1.16,100
0,-45.8667,-67.5,46.26,46.26,34,Comodoro Rivadavia,28.77,0
0,-2.8856,-40.12,76.98,76.98,82,Acaraú,17.22,12
0,42.5216,-7.5142,60.57,60.57,94,Monforte de Lemos,1.68,0
0,71.9667,102.5,64.27,64.27,43,Khatanga,7.47,6
0,-25.7023,28.2591,42.51,44.31,50,Waverley,14.97,50
0,42.5466,-6.5962,57.79,57.81,87,Ponferrada,1.99,0
0,65.441,52.1498,53.8,53.8,83,Ust-Tsilma,6.91,92
0,17.8868,-77.5902,77.09,77.09,81,Bull Savanna,4.36,18
0,43.6981,-85.4837,60.82,64.69,94,Big Rapids,0.0,40
0,31.6315,-8.0083,77.07,77.07,53,Marrakesh,2.3,0
0,-5.5569,-80.8222,63.43,63.43,85,Sechura,15.97,7
0,68.75,161.3,50.74,50.74,54,Cherskiy,4.97,6
0,-35.1667,173.1667,59.5,59.5,82,Ahipara,12.08,100
0,-14.25,129.55,89.2,89.2,18,Port Keats,8.97,7
0,26.7833,-101.4167,79.34,79.34,71,Castaños,9.46,86
0,-38.0023,-57.5575,53.98,55.09,97,Mar del Plata,14.0,100
0,-3.6667,152.4333,83.32,83.32,71,Namatanai,4.41,100
0,20.5022,-10.0711,86.54,86.54,45,Adrar,18.7,25
0,-4.9667,39.8333,73.24,73.24,82,Micheweni,9.22,13
0,42.2683,118.9636,74.44,74.44,61,Chifeng,7.25,93
0,9.1429,18.3923,75.11,75.11,94,Sarh,2.3,20
0,40.2681,-96.747,76.87,77.09,65,Beatrice,10.36,0
0,-20.3428,57.7575,68.25,68.25,83,Bambous Virieux,17.27,75
0,4.5721,28.3955,65.98,65.98,95,Yambio,1.3,100
0,-2.9506,12.7261,61.16,61.16,96,Mossendjo,2.75,10
0,47.1301,-119.2781,81.88,81.88,23,Moses Lake,6.85,70
0,5.7947,0.8973,73.51,73.51,92,Anloga,17.67,100
0,-32.035,-52.0986,59.95,59.95,90,Rio Grande,14.52,0
0,22.5667,59.5289,88.79,88.79,57,Sur,9.19,45
0,48.1,136.1,73.11,73.11,73,Mukhen,2.57,13
0,7.9178,98.3332,87.69,87.69,99,Kathu,7.52,32
0,32.5341,20.5791,78.31,78.31,77,Tūkrah,4.29,0
0,36.2946,-76.2511,70.21,74.01,85,Elizabeth City,5.57,100
0,-19.9842,57.6142,68.47,68.47,77,Cap Malheureux,7.0,88
0,-28.7667,114.6,66.61,66.61,72,Geraldton,16.11,4
0,67.4667,78.7,45.18,45.18,96,Tazovsky,15.75,100
0,33.9911,-6.8401,67.26,69.15,92,Rabat,0.0,40
0,-26.1588,29.7153,35.01,35.01,53,Hendrina,8.16,4
0,51.1494,-100.0502,69.94,69.94,93,Dauphin,6.91,0
0,0.8,127.4,80.29,80.29,78,Ternate,7.56,100
0,33.0833,-16.3333,67.42,67.42,83,Camacha,9.22,20
0,-14.8864,-70.5889,50.97,50.97,37,Ayaviri,2.46,89
0,-5.1989,-35.4608,73.18,73.18,78,Touros,15.99,45
0,53.9353,139.9242,66.79,66.79,63,Mnogovershinnyy,2.44,21
0,32.296,-81.2354,72.03,78.85,66,Rincon,4.34,1
0,32.3754,15.0925,81.79,81.79,73,Misratah,2.06,0
0,59.0556,80.8572,46.33,46.33,95,Kargasok,22.12,100
0,50.6996,-127.4199,59.18,59.18,94,Port Hardy,3.44,75
0,51.4667,140.7833,67.89,67.89,75,De-Kastri,5.3,92
0,-33.6971,-53.4616,58.84,58.84,86,Chui,10.13,8
0,-20.2078,57.7625,68.09,68.11,67,Quatre Cocos,20.09,84
0,-5.3833,39.7,73.63,73.63,81,Mtambile,9.57,10
0,45.4612,8.0137,63.63,67.28,71,Bose,4.61,36
0,2.9333,11.9833,63.27,63.27,99,Sangmélima,2.93,95
0,-4.2525,-69.9381,75.29,75.29,94,Tabatinga,0.0,40
0,-2.5744,150.7967,83.12,83.12,67,Kavieng,5.44,100
0,56.0951,27.5372,61.99,61.99,97,Dagda,4.88,94
0,67.45,153.6833,54.95,54.95,39,Srednekolymsk,13.31,2
0,-4.9561,-37.1369,74.34,74.34,69,Areia Branca,21.5,12
0,-7.3,27.4167,73.24,73.24,40,Manono,2.57,79
0,69.2167,-51.1,40.98,40.98,87,Ilulissat,4.09,100
0,64.0019,44.4451,57.25,57.25,77,Karpogory,3.31,82
0,27.9167,96.1667,77.85,77.85,98,Tezu,1.63,98
0,-21.3393,55.4781,64.81,70.92,71,Saint-Pierre,5.75,0
0,50.7214,136.6319,71.94,71.94,63,Solnechnyy,3.24,45
0,43.5945,-83.8889,66.16,68.11,79,Bay City,0.0,100
0,55.3333,73.1167,55.35,55.35,64,Krasnoyarka,13.78,7
0,45.2986,35.7771,73.8,73.8,78,Lenine,3.36,0
0,-8.19,114.9675,84.76,84.76,72,Banjar,2.55,32
0,29.3848,104.0286,88.47,88.47,66,Luocheng,2.46,100
0,51.55,-9.2667,63.1,63.1,92,Skibbereen,8.72,42
0,63.8986,122.7617,55.33,55.33,94,Kysyl-Syr,7.07,100
0,37.2711,-87.1764,75.85,76.86,83,Morehead,0.0,75
0,35.7333,140.8333,88.2,90.28,75,Hasaki,4.5,90
0,-7.8447,-79.1469,57.74,57.74,83,Chicama,8.01,22
0,68.5333,146.4167,57.52,57.52,42,Belaya Gora,13.6,1
0,48.1833,6.45,60.35,60.35,98,Épinal,5.57,86
0,-2.0226,147.2712,84.43,84.43,61,Lorengau,6.53,100
0,-25.9653,32.5892,58.68,58.68,72,Maputo,10.36,0
0,38.4445,-9.1015,67.91,69.28,92,Sesimbra,9.19,0
0,27.3667,95.3167,82.27,82.27,99,Duliāgaon,3.42,100
0,27.7167,85.3167,77.22,77.22,73,Kathmandu,0.0,20
0,58.5169,-117.136,71.71,71.71,73,High Level,0.0,75
0,-42.7826,147.0587,51.35,54.91,86,New Norfolk,4.47,69
0,42.0751,-72.0334,64.31,66.94,77,Southbridge,5.01,100
0,3.7833,72.9667,80.33,80.33,80,Mahibadhoo,9.62,95
0,10.9995,122.6711,84.06,84.06,74,Dingle,10.0,87
0,50.5994,97.5228,66.58,66.58,44,Kungurtug,1.34,50
0,71.9167,114.0833,58.01,58.01,45,Saskylakh,4.74,2
0,60.1432,-45.2371,44.26,44.26,96,Nanortalik,6.64,88
0,60.3964,-1.353,56.93,56.93,93,Brae,3.09,100
0,50.035,14.2344,61.86,65.21,90,Rudná,3.44,20
0,41.1415,-73.3579,67.78,72.75,62,Westport,5.01,31
0,14.0833,98.2,84.52,84.52,72,Dawei,2.28,98
0,49.1167,131.1833,74.52,74.52,45,Khingansk,0.54,6
0,-41.1456,-71.3082,29.95,29.95,93,Bariloche,9.22,75
0,34.6667,138.95,88.11,88.11,75,Shimoda,16.22,98
0,21.3906,-158.1547,83.01,83.1,59,Nānākuli,13.56,99
0,38.7333,-27.0667,77.25,77.25,88,Praia da Vitória,12.19,75
0,13.9835,10.2704,77.02,77.02,84,Gouré,8.23,99
0,9.9658,98.6348,85.93,85.93,70,Ranong,7.43,98
0,-12.2333,136.7667,83.01,83.01,32,Nhulunbuy,17.27,0
0,1.6136,16.0517,67.78,67.78,81,Ouésso,2.89,59
0,-0.7393,-90.3518,69.55,69.55,95,Puerto Ayora,5.01,99
0,-8.145,159.5921,84.74,84.74,66,Buala,4.9,37
0,47.674,-122.1215,72.25,76.77,59,Redmond,5.23,1
0,6.6221,73.07,80.8,80.8,79,Kulhudhuffushi,9.17,100
0,39.1834,-84.5333,68.23,71.94,92,Hamilton,3.0,99
0,45.1667,10.7833,70.99,72.21,81,Province of Mantua,1.01,99
0,-37.8811,147.981,56.95,56.95,56,Lakes Entrance,15.26,98
0,57.2639,103.7519,60.85,60.85,64,Rudnogorsk,10.71,84
0,24.95,74.1333,77.11,77.11,77,Dariba,4.23,100
0,-34.6177,-68.3301,51.03,51.03,45,San Rafael,7.09,53
0,42.1668,-71.2495,67.03,71.51,73,Norfolk,1.01,99
0,-4.2365,142.8448,90.48,90.48,49,Ambunti,2.53,100
0,69.4541,-133.0374,48.2,48.2,87,Tuktoyaktuk,16.11,100
0,-31.5375,-68.5364,65.52,65.52,11,San Juan,21.52,0
0,-10.7083,-38.1833,66.79,66.79,94,Poço Verde,7.02,100
0,29.9576,122.298,83.91,83.91,81,Shenjiamen,22.73,80
0,44.7407,-81.1332,64.89,65.5,82,Wiarton,3.44,20
0,44.6714,37.7433,68.83,69.58,86,Myskhako,1.88,0
0,-21.15,149.2,78.67,78.67,42,Mackay,7.52,16
0,57.3064,88.1667,51.37,51.37,94,Tegul'det,11.18,100
0,-1.5843,14.2591,70.9,70.9,59,Lékoni,8.41,7
0,4.1213,43.8894,71.31,71.31,76,Oddur,15.93,100
0,39.4072,45.5739,65.8,65.8,40,Şahbuz,5.3,0
0,-33.4166,149.5806,50.97,50.97,72,Bathurst,1.01,100
0,-8.9333,36.1333,64.6,64.6,80,Malinyi,2.15,97
0,-1.195,-46.02,75.06,75.06,88,Carutapera,4.54,72
0,46.6166,10.7002,58.69,58.69,92,Laas,1.61,75
0,2.05,99.75,84.15,84.15,65,Bandar,2.21,81
0,61.5598,45.934,55.81,55.81,70,Krasnoborsk,3.44,28
0,-40.3167,-72.9667,41.14,41.14,97,Río Bueno,3.69,36
0,-13.0367,-46.7717,69.49,69.49,38,Campos Belos,3.6,9
0,-18.4178,-46.4181,59.41,59.41,48,Presidente Olegário,3.89,0
0,-5.2459,39.7666,71.6,71.6,85,Chake Chake,7.11,11
0,22.6906,58.5334,82.85,82.85,56,Ibrā’,2.26,23
0,39.8167,98.3,76.28,76.28,23,Jiayuguan City,4.29,19
0,-45.4167,167.7167,46.24,46.24,70,Te Anau,0.76,100
0,35.9382,-77.7905,68.09,72.41,60,Rocky Mount,5.59,99
0,54.2344,90.8328,61.95,61.95,50,Bograd,16.62,19
0,45.5234,-122.6762,79.27,82.85,48,Portland,5.01,0
0,48.9329,-125.5528,64.09,64.09,83,Ucluelet,5.64,100
0,5.3473,115.7455,89.24,89.24,58,Beaufort,3.65,76
0,61.729,17.1036,57.61,57.61,97,Hudiksvall,1.7,99
0,5.7833,36.5667,63.39,63.39,84,Bako,3.38,97
0,60.7161,-135.0538,64.72,65.17,45,Whitehorse,16.11,75
0,3.8653,-67.9239,72.25,72.25,95,Inírida,2.44,62
0,22.1167,95.1333,86.67,86.67,65,Monywa,6.04,22
0,20.1986,1.0114,92.23,92.23,13,Tessalit,6.93,14
0,6.1241,81.1185,80.94,80.94,89,Hambantota,1.14,20
0,68.0531,39.5131,48.63,48.63,74,Ostrovnoy,7.05,31
0,45.7668,-61.2985,65.26,66.34,95,Princeville,11.5,100
0,36.6217,29.1164,69.67,69.67,75,Fethiye,2.68,0
0,-23.1811,-50.6467,61.48,61.48,57,Cornélio Procópio,4.59,4
0,38.4953,102.1739,77.52,77.52,26,Jinchang,6.02,74
0,36.2546,0.8519,81.79,81.79,41,Dahra,12.91,96
0,-6.8844,112.2051,84.96,84.96,68,Labuhan,7.85,13
0,69.3833,178.4167,36.81,36.81,77,Leningradskiy,5.17,92
0,-14.8796,47.9875,63.23,63.23,76,Antsohihy,3.98,0
0,22.3082,89.7897,84.0,84.0,82,Sarankhola,11.88,90
0,37.0397,45.0983,72.16,72.16,27,Oshnavīyeh,2.8,0
0,58.0401,64.7893,53.83,53.83,62,Azanka,7.31,62
0,13.0667,-59.5333,80.69,80.69,78,Oistins,8.05,75
0,-7.7136,-66.9764,79.2,79.2,58,Pauini,2.51,31
0,10.9333,108.1,79.97,79.97,85,Phan Thiet,4.27,99
0,13.2167,-59.5167,81.21,81.21,78,Bathsheba,8.05,75
0,14.2,24.6667,70.66,70.66,81,Kutum,6.58,38
0,-6.9081,-79.8642,62.08,62.08,88,Eten,16.84,23
0,37.1819,-7.4523,67.35,68.25,66,Monte Gordo,10.33,0
0,-18.7667,46.0333,54.64,54.64,89,Tsiroanomandidy,2.62,0
0,57.8406,108.3492,55.0,55.0,96,Alekseyevsk,7.47,100
0,5.8245,-73.0341,54.01,54.01,95,Duitama,2.86,93
0,55.2353,84.3858,54.91,54.91,72,Toguchin,16.42,100
0,51.338,26.6019,64.4,64.4,90,Sarny,7.72,100
0,35.1322,-118.449,78.55,87.06,23,Tehachapi,4.0,0
0,32.5436,120.45,102.2,102.2,36,Hai’an,13.2,87
0,65.9939,57.5281,47.05,47.05,86,Usinsk,14.14,100
0,-10.6167,150.6667,83.52,83.52,72,Samarai,9.53,42
0,40.1675,34.3739,68.74,68.74,58,Sungurlu,5.12,2
0,14.9215,-23.5087,78.12,78.12,81,Praia,8.34,48
0,42.8,93.45,88.97,88.97,14,Kumul,12.46,0
0,29.1268,15.9477,83.59,83.59,31,Hūn,5.26,0
0,14.3,-91.9167,81.25,81.25,76,Champerico,2.57,99
0,31.2089,16.5887,84.29,84.29,54,Sirte,6.71,0
0,-7.95,110.2833,85.03,85.03,65,Bambanglipuro,3.13,43
0,9.9995,118.7878,85.87,85.87,80,Bahile,3.87,94
0,64.8569,-147.8028,64.71,65.28,67,College,6.91,75
0,-3.6954,128.1814,82.54,82.54,78,Ambon City,8.05,40
0,38.7045,-93.2283,75.27,76.71,55,Sedalia,7.54,71
0,45.0503,136.6092,72.14,72.14,71,Terney,6.4,84
0,-1.8,-53.48,76.3,76.3,75,Prainha,1.72,85
0,5.4112,100.3354,85.21,86.9,75,George Town,10.36,20
0,18.7333,-103.6833,77.13,77.13,92,Coahuayana Viejo,1.61,100
0,66.7697,123.3711,59.02,59.02,81,Zhigansk,4.99,99
0,20.7,-105.2,76.91,76.91,89,Ixtapa,2.19,100
0,44.1833,28.1333,64.89,67.78,98,Peştera,10.11,89
0,65.9667,29.1833,44.64,44.64,93,Kuusamo,1.14,0
0,20.8947,-156.47,80.83,83.97,82,Kahului,10.0,58
0,30.4833,-115.95,71.96,71.96,82,San Quintín,5.37,2
0,34.4816,41.9093,81.19,81.19,46,Rāwah,12.28,0
0,64.8945,-23.7142,46.18,46.18,71,Olafsvik,6.24,28
0,35.7826,-80.8873,71.15,74.53,63,Statesville,5.75,100
0,27.0377,14.4283,81.9,81.9,28,Sabha,8.75,2
0,22.6,75.3,71.96,71.96,96,Dhār,9.55,100
0,62.6683,131.1683,62.38,62.38,86,Borogontsy,5.1,99
0,-4.1372,39.3153,68.11,68.11,96,Kinango,4.32,15
0,-15.8233,-50.6133,75.33,75.33,34,Itapirapuã,2.26,3
0,-38.5473,-58.7368,50.29,50.29,92,Necochea,30.87,100
0,9.5357,99.9357,87.71,87.71,70,Ko Samui,5.75,20
0,-31.4135,-64.1811,68.23,68.85,43,Córdoba,6.91,0
0,48.9167,2.3333,64.0,66.15,90,Arrondissement de Saint-Denis,5.75,0
0,-9.0763,143.2092,79.21,79.21,81,Daru,14.92,64
0,53.5739,142.9478,60.87,60.87,81,Okha,8.43,68
0,3.9366,41.867,76.6,76.6,66,Mandera,15.61,99
0,-19.55,169.2667,78.91,78.91,83,Isangel,9.22,100
0,34.6391,-120.4579,59.47,66.34,88,Lompoc,4.0,4
0,47.5167,14.35,50.43,51.28,82,Rottenmann,3.98,27
0,52.7,115.1667,76.05,76.05,36,Verkh-Usugli,6.85,41
0,6.0367,80.217,81.19,81.19,78,Galle,9.89,91
0,53.3668,-104.0009,68.04,68.04,100,Nipawin,6.91,75
0,45.0617,-83.4327,57.2,61.18,99,Alpena,3.6,59
0,62.6323,17.9379,58.73,59.02,93,Härnösand,4.74,100
0,-33.8679,151.2073,63.86,65.37,42,Sydney,19.57,0
0,11.8685,3.3899,74.35,74.35,93,Malanville,7.05,100
0,43.7894,7.184,68.43,71.31,62,Carros,13.8,0
0,70.8578,29.0864,44.55,44.6,81,Berlevåg,9.22,95
0,2.6708,72.8944,81.39,81.39,75,Kudahuvadhoo,10.71,91
0,70.9963,24.6622,46.63,46.63,77,Havøysund,3.87,72
0,-30.1811,-50.2056,60.51,60.51,95,Cidreira,10.4,100
0,0.7,108.9,86.9,86.9,61,Sungai Raya,4.63,99
0,60.4667,166.1,56.32,56.32,86,Tilichiki,10.65,100
0,15.0,-83.2333,80.67,80.67,83,Iralaya,7.85,99
0,37.0434,-93.2944,79.0,83.14,75,Nixa,5.5,66
0,49.9333,116.8667,77.49,77.49,32,Dauriya,3.36,88
0,-1.5,33.8,68.32,68.32,79,Musoma,5.95,70
0,-21.6403,-41.0511,69.44,69.44,77,São João da Barra,16.4,2
0,43.9098,67.2495,89.98,89.98,19,Zhanakorgan,17.6,0
0,-20.5833,48.5333,62.67,62.67,86,Nosy Varika,5.08,3
0,45.0205,-93.218,64.31,66.92,84,Saint Anthony,4.61,40
0,-9.2,25.85,69.26,69.26,39,Bukama,3.38,29
0,68.2191,-135.0107,49.91,49.91,82,Aklavik,9.64,98
0,34.0232,-84.3616,73.9,78.08,85,Roswell,4.61,20
0,63.9242,127.4739,61.18,61.18,83,Sangar,9.95,100
0,-17.8786,36.8883,70.92,71.55,94,Quelimane,7.0,0
0,37.7749,-122.4194,61.93,73.22,83,San Francisco,21.85,20
0,59.5764,25.7214,63.43,63.43,82,Loksa,5.82,63
0,36.0303,10.509,75.06,80.46,73,Hergla,3.44,0
0,-0.7167,-48.5233,78.37,78.37,82,Soure,9.15,54
0,-19.0595,-169.9187,73.29,73.29,78,Alofi,21.85,98
0,-34.0363,23.0471,46.58,46.58,83,Knysna,6.22,25
0,29.1614,16.139,82.83,82.83,33,Waddān,4.59,0
0,35.1333,140.3,85.37,85.37,76,Katsuura,13.15,100
0,-20.6667,-40.4975,62.89,62.89,76,Guarapari,6.15,14
0,-8.6136,120.4721,75.07,75.07,54,Ruteng,1.34,66
0,-22.8167,47.8333,65.61,65.61,85,Farafangana,10.02,7
0,36.4989,111.7047,89.53,89.53,37,Xinzhi,6.82,100
0,42.1584,-72.3287,62.58,67.55,72,Palmer,3.44,20
0,64.8989,45.7622,53.82,53.82,83,Leshukonskoye,4.54,26
0,40.7353,34.4739,67.89,67.89,72,İskilip,5.1,0
0,-25.2406,130.9889,71.04,71.04,28,Yulara,9.86,0
0,4.9333,-52.3333,81.09,81.09,1,Cayenne,1.14,100
0,47.6553,24.6633,59.67,59.67,90,Borşa,3.91,94
0,71.6872,128.8694,47.57,47.57,81,Tiksi,4.81,91
0,-22.2763,166.4572,78.01,78.01,99,Noumea,5.84,100
0,33.7333,135.9833,91.69,91.69,57,Shingū,11.99,67
0,9.35,42.8,62.06,62.06,81,Jijiga,16.35,83
0,61.0749,50.1031,54.48,54.48,66,Vizinga,2.59,23
0,34.7667,134.85,88.2,91.29,67,Kakogawa,8.03,75
0,-20.2333,164.0167,76.06,76.06,81,Poum,18.05,100
0,-9.5402,16.341,60.26,60.26,84,Malanje,4.74,19
0,-23.3833,150.5,73.29,73.29,35,Rockhampton,9.22,0
0,50.8855,45.488,65.12,65.12,61,Kamenskiy,11.5,94
0,67.6333,134.6333,68.79,68.79,49,Batagay,3.78,16
0,-32.2667,150.9,63.32,63.32,53,Muswellbrook,13.02,91
0,41.8833,23.1167,60.98,60.98,91,Simitli,3.18,93
0,48.8,132.95,73.96,73.96,65,Birobidzhan,3.44,7
0,-4.2444,-42.2944,72.12,72.12,80,Barras,4.14,43
0,-2.9248,-39.9167,76.98,76.98,83,Itarema,16.42,12
0,6.4965,2.6036,75.02,75.02,93,Porto-Novo,12.48,100
0,-1.5667,-80.4167,68.85,68.85,89,Paján,3.98,46
0,64.1835,-51.7216,45.88,45.88,93,Nuuk,18.99,100
0,43.7444,135.2892,71.62,71.62,69,Ol'ga,4.25,100
0,62.2266,-6.589,47.32,47.32,86,Klaksvík,6.42,100
0,41.7992,-85.4192,64.74,65.88,92,Sturgis,0.0,100
0,-7.5061,-63.0208,76.64,76.64,62,Humaitá,3.02,4
0,-17.3667,30.2,59.22,59.22,38,Chinhoyi,1.1,0
0,-8.4753,-74.8058,76.69,76.69,69,Campoverde,2.73,0
0,-26.6167,-54.1333,65.89,65.89,57,San Vicente,6.49,80
0,55.9333,158.7,55.27,55.27,98,Esso,7.02,100
0,-14.7972,-57.2881,76.44,76.44,34,Nova Olímpia,3.58,10
0,-9.2895,-76.0088,69.53,69.53,89,Tingo María,2.57,40
0,-13.6092,-42.9389,67.86,67.86,57,Riacho de Santana,7.9,3
0,67.8006,130.4114,63.3,63.3,55,Batagay-Alyta,7.67,18
0,-42.7167,170.9667,55.36,55.36,53,Hokitika,7.05,100
0,-25.2408,-53.9964,68.09,68.09,50,Matelândia,9.37,0
0,63.8424,-22.4338,41.47,46.35,87,Grindavik,8.05,20
0,40.81,114.8794,77.58,77.58,47,Zhangjiakou,17.02,68
0,4.7059,-74.2302,55.49,55.49,82,Mosquera,4.61,40
0,13.5828,-2.4216,77.14,77.14,80,Ouahigouya,14.41,91
0,-14.8333,-64.9,77.13,77.13,52,La Santisima Trinidad,4.68,5
0,-23.865,35.3833,69.42,69.42,82,Inhambane,20.2,73
0,16.0589,-61.7659,78.37,78.37,78,Vieux-Habitants,4.81,37
0,51.3813,1.3862,64.72,68.31,80,Margate,6.89,100
0,25.2934,32.554,83.66,83.66,29,Esna,15.37,38
0,42.8666,-106.3131,69.73,69.73,82,Casper,1.01,89
0,13.3068,123.3425,82.4,82.4,78,Buluang,10.13,100
0,-9.4333,159.95,82.81,82.81,77,Honiara,3.38,32
0,38.0373,-84.8966,71.2,74.71,92,Lawrenceburg,4.27,100
0,60.7522,-137.5108,60.75,60.75,59,Haines Junction,5.75,100
0,49.6959,37.1735,74.34,74.34,33,Shevchenkove,16.33,99
0,50.06,43.2379,68.79,68.79,57,Mikhaylovka,11.01,28
0,36.2133,58.7958,74.08,74.08,22,Neyshabur,2.08,0
0,37.1041,-113.5841,78.94,79.39,61,Saint George,9.22,75
0,69.3,139.9,45.03,45.03,75,Deputatsky,7.7,100
0,30.3088,-89.33,79.79,86.02,88,Bay Saint Louis,7.4,82
0,14.1022,-1.6306,80.91,80.91,72,Djibo,13.94,72
0,21.15,81.7,75.38,75.38,94,Bhatgaon,11.5,100
0,40.4272,71.7189,83.12,83.12,32,Yangi Marg`ilon,4.61,51
0,41.25,31.8333,63.37,63.37,98,Zonguldak,1.36,74
0,43.0982,5.8847,73.8,74.88,68,La Seyne-sur-Mer,3.83,1
0,7.5264,-12.505,74.46,74.46,92,Bonthe,6.96,100
0,67.5447,133.385,66.83,66.83,53,Verkhoyansk,4.5,62
0,33.0559,113.7978,97.0,97.0,50,Wencheng,6.98,96
0,-0.7193,8.7815,72.55,72.55,78,Port-Gentil,11.86,5
0,3.0833,-59.95,76.78,76.78,71,Bonfim,4.09,83
0,46.2732,44.22,77.45,77.45,36,Arshan',13.42,5
0,-21.35,165.15,77.67,77.67,74,Poya,5.19,99
0,49.6334,-105.9845,82.22,82.22,30,Assiniboia,12.66,0
0,2.3,111.8167,88.56,88.56,58,Sibu,3.56,64
0,50.9276,84.761,59.16,59.16,63,Ust'-Kan,3.51,28
0,24.3448,124.1572,91.53,91.53,70,Ishigaki,14.97,40
0,8.0086,-62.3989,75.2,75.2,95,Upata,3.31,84
0,55.3422,-131.6461,57.69,57.69,97,Ketchikan,4.88,100
0,21.3469,-158.0858,81.21,81.68,58,Makakilo City,15.75,98
0,61.994,-49.6678,43.3,43.3,96,Paamiut,9.75,60
0,38.9342,100.4517,78.31,78.31,25,Zhangye,6.67,90
0,-9.5972,-35.9567,73.33,73.33,93,Pilar,0.47,53
0,4.1363,96.1285,79.56,79.56,67,Meulaboh,5.23,100
0,50.2334,-63.5986,61.16,61.16,94,Havre-St-Pierre,3.44,100
0,36.6864,52.5225,82.33,82.33,71,Fereydūnkenār,6.91,0
0,58.5738,26.2878,60.94,62.29,93,Puurmani,4.61,40
0,50.147,48.5704,73.17,73.17,47,Aleksandrov Gay,12.53,4
0,-34.7333,135.8667,54.86,54.86,83,Port Lincoln,11.81,97
0,10.4396,45.0143,89.15,89.15,44,Berbera,22.79,100
0,-34.8603,-56.0522,64.94,64.94,75,Paso de Carrasco,15.48,89
0,-0.1303,-67.0892,72.54,72.54,97,São Gabriel da Cachoeira,2.28,100
0,62.55,155.55,61.9,61.9,63,Dukat,6.31,100
0,-14.8031,36.5372,62.91,62.91,65,Cuamba,3.69,0
0,54.7183,135.315,58.6,58.6,83,Chumikan,8.72,46
0,29.7995,71.7196,90.25,90.25,57,Dunyapur,4.63,20
0,43.7501,-81.7165,68.92,68.92,67,Goderich,10.07,63
0,26.3544,127.8686,88.63,88.83,66,Gushikawa,12.48,8
0,0.1333,117.5,86.31,86.31,62,Bontang,5.99,100
0,44.6453,-63.5724,64.54,65.68,89,Halifax,10.36,87
0,-34.4833,-54.3333,59.77,59.77,88,Rocha,12.75,10
0,4.8,119.85,83.75,83.75,72,Manuk Mangkaw,9.33,99
0,-6.2222,-57.7528,71.17,71.17,97,Jacareacanga,3.27,47
0,66.0449,-17.3389,43.02,43.02,77,Husavik,7.31,54
0,26.9333,-101.45,81.32,81.32,71,Frontera,12.35,72
0,41.4029,28.3834,76.68,76.68,89,Karacaköy,8.68,91
0,41.6362,-70.9342,67.01,70.72,65,New Bedford,3.0,100
0,10.4731,-68.0125,79.77,79.77,76,Puerto Cabello,12.03,71
0,1.95,34.95,65.68,65.68,87,Amudat,0.18,70
0,-13.7,-76.2167,60.03,60.03,81,Pisco,0.85,4
0,54.1088,102.1648,65.46,65.46,69,Sayansk,4.61,29
0,-23.1333,150.7333,73.18,73.18,43,Yeppoon,2.35,0
0,10.5669,72.642,81.27,81.27,77,Kavaratti,11.21,94
0,40.1629,-8.3327,55.96,55.96,97,Lata,1.43,15
0,29.6486,-81.6376,76.01,79.97,77,Palatka,2.84,13
0,16.5167,-98.75,80.65,80.65,79,Barra de Tecoanapa,4.03,100
0,38.7992,-9.4469,67.8,68.76,76,Colares,21.0,0
0,41.2835,-70.0995,66.16,70.0,48,Nantucket,7.56,100
0,59.3736,41.0305,61.12,61.12,89,Shuyskoye,2.8,40
0,14.8961,-24.4956,76.91,76.91,73,São Filipe,7.14,4
0,22.2072,69.6683,80.37,80.37,84,Khambhāliya,15.95,100
0,26.5851,101.7128,79.9,79.9,75,Panzhihua,0.22,90
0,4.8845,-1.7554,75.02,75.02,85,Takoradze,13.4,100
0,-9.1061,124.8925,84.4,84.4,44,Atambua,5.75,73
0,-20.3297,-40.2925,62.94,62.94,93,Vila Velha,5.75,100
0,50.2441,127.4902,77.58,77.58,57,Heihe,5.03,27
0,-6.8367,-79.9342,62.04,62.04,88,Pimentel,17.58,11
0,62.8629,51.8905,53.15,53.15,64,Sindor,5.64,95
0,19.4333,-72.2,72.45,72.45,94,Saint-Raphaël,2.93,58
0,24.2582,118.0905,85.86,85.86,72,Zhenhaicun,5.03,9
0,27.6,73.4167,83.86,83.86,66,Nokha,1.23,100
0,17.9583,-102.2,79.47,79.47,79,Lázaro Cárdenas,1.99,84
0,-34.2,142.15,55.08,55.08,76,Mildura,17.76,98
0,12.5847,-81.7006,82.9,82.9,78,San Andrés,13.24,22
0,18.3851,42.4509,63.12,64.51,74,Faya,4.74,99
0,55.1001,-105.2842,64.24,64.24,83,La Ronge,6.46,66
0,59.5833,151.2833,66.15,66.15,76,Ola,3.67,100
0,58.4497,92.1703,54.9,54.9,92,Yeniseysk,9.1,100
0,64.5011,-165.4064,54.16,54.16,63,Nome,11.52,6
0,64.8378,-147.7164,64.56,65.3,67,Fairbanks,6.91,75
0,69.4058,86.1778,65.62,65.62,46,Dudinka,6.13,70
